{"@id":"https://w3id.org/100_Sites","type":"FeatureCollection","@context":"https://w3id.org/locolligo/contexts/linkedplaces.jsonld","features":[{"@id":"https://w3id.org/100_Sites/c940c94c-fc1d-42ec-9fa1-67c26ea024d4","type":"Feature","properties":{"title":"Badbury Rings","organisation":"National Trust","url":"https://www.nationaltrust.org.uk/kingston-lacy/features/badbury-rings","description":"TBC","lines":"--","town":"--","county":"--","country":"--","postcode":"--","region":"South West"},"geometry":{"type":"Point","coordinates":[2.0583,50.8272]}},{"@id":"https://w3id.org/100_Sites/a5bba4d2-d7b0-4183-95f8-2fc2bd2f4168","type":"Feature","properties":{"title":"Beesands to Hallsands","organisation":"National Trust","url":"https://www.nationaltrust.org.uk/place-pages/6076/pages/opening-times-calendar","description":"Discover the haunting remains of the lost village of Hallsands","lines":"--","town":"Beesands","county":"Devon","country":"England","postcode":"TQ7","region":"South West"},"geometry":{"type":"Point","coordinates":[-3.659649,50.24369]}},{"@id":"https://w3id.org/100_Sites/adcda002-e4ba-4d1b-bdbd-edc26aab5800","type":"Feature","properties":{"title":"Bodysgallen Hall and Spa","organisation":"National Trust","url":"https://www.nationaltrust.org.uk/holidays/bodysgallen-hall-and-spa-north-wales","description":"Bodysgallen Hall Hotel Restaurant & Spa, C17th Grade 1 listed set in 220 acres","lines":"The Royal Welsh Way","town":"Llandudno","county":"Conwy","country":"Wales","postcode":"LL30 1RS","region":"Wales"},"geometry":{"type":"Point","coordinates":[-3.802557,53.296799]}},{"@id":"https://w3id.org/100_Sites/bf1dcfa8-0c8f-4b99-89ee-0dd82a30d409","type":"Feature","properties":{"title":"Combe Wood","organisation":"National Trust","url":"https://www.nationaltrust.org.uk/shute-barton/features/combe-wood","description":"Escape the bustle and enjoy a secluded woodland walk","lines":"--","town":"near Honiton","county":"Devon","country":"England","postcode":"EX14","region":"South West"},"geometry":{"type":"Point","coordinates":[-3.191013,50.80767]}},{"@id":"https://w3id.org/100_Sites/03b6f5df-74d9-4f7a-b90a-43b81a037523","type":"Feature","properties":{"title":"Dumpdon Hill Fort","organisation":"National Trust","url":"https://www.nationaltrust.org.uk/shute-barton/features/dumpdon-hill-fort","description":"An ancient hill fort with views over the Otter Valley","lines":"Dumpdon Lane; near Beacon","town":"Honiton","county":"Devon","country":"England","postcode":"EX14","region":"South West"},"geometry":{"type":"Point","coordinates":[-3.169994,50.831461]}},{"@id":"https://w3id.org/100_Sites/45af65ce-52e3-49cd-84de-3dee76d8b2f0","type":"Feature","properties":{"title":"Eifionydd","organisation":"National Trust","url":"https://www.nationaltrust.org.uk/features/hafod-garegog-tree-nursery","description":"Snowdon's pastoral foothills reach down to the sea","lines":"--","town":"Dinas Dinlle","county":"Gwynedd","country":"Wales","postcode":"LL54","region":"Wales"},"geometry":{"type":"Point","coordinates":[-4.334769,53.081867]}},{"@id":"https://w3id.org/100_Sites/643819e9-363e-4659-8c6a-7bc1c7d95754","type":"Feature","properties":{"title":"Finchampstead Ridges","organisation":"National Trust","url":"https://www.nationaltrust.org.uk/runnymede/features/finchampstead-ridges","description":"Finchampstead Ridges","lines":"--","town":"--","county":"--","country":"--","postcode":"--","region":"--"},"geometry":{"type":"Point","coordinates":[-0.839402349,51.36420527]}},{"@id":"https://w3id.org/100_Sites/b4cc9f38-21ff-45a3-b89b-70af6264ff7e","type":"Feature","properties":{"title":"Middlethorpe Hall and Spa","organisation":"National Trust","url":"https://www.nationaltrust.org.uk/holidays/middlethorpe-hall-and-spa-york","description":"Middlethorpe Hall Hotel Restaurant & Spa, handsome William and Mary country house set in 20 acres of garden and parkland within the City of Yorkâ€¦","lines":"Bishopthorpe Road","town":"York","county":"North Yorkshire","country":"England","postcode":"YO23 2GB","region":"Yorkshire and North East"},"geometry":{"type":"Point","coordinates":[-1.088655,53.93051]}},{"@id":"https://w3id.org/100_Sites/551ca92c-a949-4786-aa44-129a9057ab87","type":"Feature","properties":{"title":"Morston Quay","organisation":"National Trust","url":"https://www.nationaltrust.org.uk/morston-quay","description":"Explore the Norfolk Coast from Morston Quay","lines":"Morston Quay; Quay Lane","town":"Holt","county":"Norfolk","country":"--","postcode":"NR25 7BH","region":"East of England"},"geometry":{"type":"Point","coordinates":[0.98656,52.956741]}},{"@id":"https://w3id.org/100_Sites/657499ae-e9f2-402d-ba15-4d3b1319ee78","type":"Feature","properties":{"title":"Northumberland Coast","organisation":"National Trust","url":"https://www.nationaltrust.org.uk/days-out/northumberland-coast","description":"TBC","lines":"--","town":"--","county":"--","country":"--","postcode":"--","region":"--"},"geometry":{"type":"Point","coordinates":[-1.594529286,55.48078075]}},{"@id":"https://w3id.org/100_Sites/7e7d4070-d0c4-401c-b53a-b07bf5892fcd","type":"Feature","properties":{"title":"Outridge Farm","organisation":"National Trust","url":"https://www.nationaltrust.org.uk/holidays/octavia-hill-kent","description":"A traditional English landscape","lines":"Piper's Green Road; Brasted","town":"Westerham","county":"Kent","country":"England","postcode":"TN16 1ND","region":"London and South East"},"geometry":{"type":"Point","coordinates":[0.100372,51.253806]}},{"@id":"https://w3id.org/100_Sites/dfbeefdf-b5fe-43ab-8004-c5ec3b706498","type":"Feature","properties":{"title":"Paxton's Tower","organisation":"National Trust","url":"https://www.nationaltrust.org.uk/features/feel-on-top-of-the-world-at-paxtons-tower-","description":"Neo-Gothic folly erected in honour of Lord Nelson, situated on a hilltop near Llanarthney in the Towy Valley","lines":"Llanarthney","town":"Carmarthen","county":"Carmarthenshire","country":"Wales","postcode":"--","region":"Wales"},"geometry":{"type":"Point","coordinates":[-4.11978,51.851831]}},{"@id":"https://w3id.org/100_Sites/2886546e-a60e-4661-9283-847584a84e7f","type":"Feature","properties":{"title":"Porth Meudwy","organisation":"National Trust","url":"https://www.nationaltrust.org.uk/features/porth-meudwy","description":"It was from here that the Pilgrims set out to Ynys Enlli (Bardsey Island)","lines":"near Aberdaron","town":"--","county":"Gwynedd","country":"Wales","postcode":"--","region":"Wales"},"geometry":{"type":"Point","coordinates":[-4.532271,52.847872]}},{"@id":"https://w3id.org/100_Sites/a6045227-a6ad-484c-972b-0b924ad73f89","type":"Feature","properties":{"title":"Ringmore and Kingston","organisation":"National Trust","url":"https://www.nationaltrust.org.uk/noss-mayo/features/ringmore-and-kingston","description":"A secluded, unspolit beach at Ayrmer","lines":"Ringmore","town":"Kingsbridge","county":"Devon","country":"England","postcode":"TQ7","region":"South West"},"geometry":{"type":"Point","coordinates":[-3.90933,50.295425]}},{"@id":"https://w3id.org/100_Sites/9688f7f6-fa41-492f-aa6d-1a92485a5c94","type":"Feature","properties":{"title":"Salcombe to Hope Cove","organisation":"National Trust","url":"https://www.nationaltrust.org.uk/east-soar/trails/bolt-head-walk","description":"A coastline of dramatic cliffs, open farmland and sandy coves","lines":"--","town":"Salcombe","county":"Devon","country":"England","postcode":"--","region":"South West"},"geometry":{"type":"Point","coordinates":[-3.839207,50.231093]}},{"@id":"https://w3id.org/100_Sites/bafbb352-2bec-41a9-a13a-3a0dbb8efce5","type":"Feature","properties":{"title":"St George's Guildhall","organisation":"National Trust","url":"https://www.nationaltrust.org.uk/st-georges-guildhall","description":"Rare large medieval guildhall","lines":"29 King Street","town":"King's Lynn","county":"Norfolk","country":"England","postcode":"PE30 1HA","region":"East of England"},"geometry":{"type":"Point","coordinates":[0.39507,52.755199]}},{"@id":"https://w3id.org/100_Sites/535624fe-6674-41f4-b095-04e2b64cf8f9","type":"Feature","properties":{"title":"Stembridge Tower Mill","organisation":"National Trust","url":"https://www.nationaltrust.org.uk/stembridge-tower-mill","description":"The last remaining thatched windmill in England","lines":"--","town":"High Ham","county":"Somerset","country":"England","postcode":"TA10 9DJ","region":"South West"},"geometry":{"type":"Point","coordinates":[-2.80628,51.070301]}},{"@id":"https://w3id.org/100_Sites/c89b27df-6299-4293-80e0-e6c47cd32afe","type":"Feature","properties":{"title":"Sundon Hills Country Park","organisation":"National Trust","url":"https://www.nationaltrust.org.uk/sharpenhoe","description":"One of the highest points in Bedfordshire","lines":"Harlington Road","town":"Upper Sundon","county":"Bedfordshire","country":"England","postcode":"--","region":"East of England"},"geometry":{"type":"Point","coordinates":[-0.476063,51.946487]}},{"@id":"https://w3id.org/100_Sites/c058ee99-29a3-4fa4-a008-cc910adccf78","type":"Feature","properties":{"title":"Totternhoe Knolls","organisation":"National Trust","url":"https://www.nationaltrust.org.uk/lists/walking-in-essex-bedfordshire-and-hertfordshire","description":"Totternhoe Knolls sits within an important medieval quarrying area","lines":"Castle Hill Road","town":"Totternhoe","county":"Bedfordshire","country":"England","postcode":"--","region":"East of England"},"geometry":{"type":"Point","coordinates":[-0.569598,51.885604]}},{"@id":"https://w3id.org/100_Sites/45824925-1c81-4bcb-a778-4c191e1dbe29","type":"Feature","properties":{"title":"Ynys Mon Coast and Countryside","organisation":"National Trust","url":"https://www.nationaltrust.org.uk/lists/top-10-welsh-autumn-adventures","description":"TBC","lines":"--","town":"--","county":"Anglesey","country":"Wales","postcode":"--","region":"Wales"},"geometry":{"type":"Point","coordinates":[-4.517091,53.412641]}},{"@id":"https://w3id.org/100_Sites/b6f787bf-b0b8-4197-be66-0de59fb67ad1","type":"Feature","properties":{"title":"Pike Hill Signal Tower","organisation":"English Heritage","url":"https://www.english-heritage.org.uk/visit/places/#?page=1&place=Pike%20Hill%20Signal%20Tower&mp=false&fe=false","description":"Structure","region":"Hadrian's Wall","period":"Roman"},"geometry":{"type":"Point","coordinates":[-2.662409034,54.97600589]}},{"@id":"https://w3id.org/100_Sites/ee54611a-3a98-4515-9ac9-9890c6586044","type":"Feature","properties":{"title":"1066 Battle of Hastings, Abbey and Battlefield","organisation":"English Heritage","url":"https://www.english-heritage.org.uk/visit/places/1066-Battle-of-Hastings-Abbey-and-Battlefield","description":"Abbey","region":"South East","period":"Medieval"},"geometry":{"type":"Point","coordinates":[0.487843692,50.91426667]}},{"@id":"https://w3id.org/100_Sites/0f50ebbf-ecf6-4acc-a83d-7b9546cb6e1b","type":"Feature","properties":{"title":"Abbotsbury Abbey","organisation":"English Heritage","url":"https://www.english-heritage.org.uk/visit/places/abbotsbury-abbey-remains/","description":"Abbey","region":"South West","period":"Medieval"},"geometry":{"type":"Point","coordinates":[-2.59847302,50.66493466]}},{"@id":"https://w3id.org/100_Sites/d33078b8-53af-4919-b59e-c1d8aa28d510","type":"Feature","properties":{"title":"Abbotsbury, St Catherine's Chapel","organisation":"English Heritage","url":"https://www.english-heritage.org.uk/visit/places/Abbotsbury-St-Catherines-Chapel","description":"Chapel","region":"South West","period":"Medieval"},"geometry":{"type":"Point","coordinates":[-2.605501479,50.6613012]}},{"@id":"https://w3id.org/100_Sites/05ae6fb3-694f-4f2b-9f37-836b07290405","type":"Feature","properties":{"title":"Abingdon County Hall Museum","organisation":"English Heritage","url":"https://www.english-heritage.org.uk/visit/places/Abingdon-County-Hall-Museum","description":"House","region":"South East","period":"Post medieval"},"geometry":{"type":"Point","coordinates":[-1.281248715,51.67047719]}},{"@id":"https://w3id.org/100_Sites/e2e079fa-108c-407f-b581-9dd35dbc4188","type":"Feature","properties":{"title":"Acton Burnell Castle","organisation":"English Heritage","url":"https://www.english-heritage.org.uk/visit/places/Acton-Burnell-Castle","description":"Castle","region":"West Midlands","period":"Medieval"},"geometry":{"type":"Point","coordinates":[-2.689681707,52.61286693]}},{"@id":"https://w3id.org/100_Sites/bd38bd59-13a6-4eb3-99bd-4434d9ecdf22","type":"Feature","properties":{"title":"Aldboroough Roman Site","organisation":"English Heritage","url":"https://www.english-heritage.org.uk/visit/places/aldborough-roman-site/","description":"Structure","region":"Yorkshire & the Humber","period":"Roman"},"geometry":{"type":"Point","coordinates":[-1.382297496,54.09012358]}},{"@id":"https://w3id.org/100_Sites/6b4127e0-6cf3-4da5-80e6-79a4228b3fd2","type":"Feature","properties":{"title":"Avebury Alexander Keiller Museum","organisation":"English Heritage","url":"https://www.english-heritage.org.uk/visit/places/alexander-keiller-museum-avebury/","description":"Structure (museum)","region":"South West","period":"Prehistoric"},"geometry":{"type":"Point","coordinates":[-1.858989653,51.42892336]}},{"@id":"https://w3id.org/100_Sites/cb58c842-ec2c-476f-b626-36fb5702311c","type":"Feature","properties":{"title":"Ambleside Roman Fort","organisation":"English Heritage","url":"https://www.english-heritage.org.uk/visit/places/Ambleside-Roman-Fort","description":"Structure/Fort","region":"North West","period":"Roman"},"geometry":{"type":"Point","coordinates":[-2.969439742,54.42214229]}},{"@id":"https://w3id.org/100_Sites/88975aa4-9f82-4836-9a49-93e46deace05","type":"Feature","properties":{"title":"Apethorpe  Palace","organisation":"English Heritage","url":"https://www.english-heritage.org.uk/visit/places/Apethorpe-Palace","description":"House","region":"East Midlands","period":"Post medieval"},"geometry":{"type":"Point","coordinates":[-0.492553475,52.54685145]}},{"@id":"https://w3id.org/100_Sites/8aa07bd0-abd0-4e9f-8755-9e85acae2bbd","type":"Feature","properties":{"title":"Appuldurcombe House","organisation":"English Heritage","url":"https://www.english-heritage.org.uk/visit/places/Appuldurcombe-House","description":"House","region":"South East","period":"Post medieval"},"geometry":{"type":"Point","coordinates":[-1.233803561,50.61719263]}},{"@id":"https://w3id.org/100_Sites/3f30128a-6250-4b84-ba49-f7ede12ee8f0","type":"Feature","properties":{"title":"Apsley House","organisation":"English Heritage","url":"https://www.english-heritage.org.uk/visit/places/Apsley-House","description":"House","region":"London","period":"Post medieval"},"geometry":{"type":"Point","coordinates":[-0.150940986,51.5034606]}},{"@id":"https://w3id.org/100_Sites/c7bd474d-c00c-4bc9-b1b1-021e0dc440a0","type":"Feature","properties":{"title":"Arbor Low Stone Circle and Gib Hill Barrow","organisation":"English Heritage","url":"https://www.english-heritage.org.uk/visit/places/Arbor-Low-Stone-Circle-and-Gib-Hill-Barrow","description":"Structure","region":"East Midlands","period":"Prehistoric"},"geometry":{"type":"Point","coordinates":[-1.762110955,53.16928046]}},{"@id":"https://w3id.org/100_Sites/30466599-25c4-4587-8405-0da4d51567df","type":"Feature","properties":{"title":"Arthur's Stone","organisation":"English Heritage","url":"https://www.english-heritage.org.uk/visit/places/Arthurs-Stone","description":"Structure","region":"West Midlands","period":"Prehistoric"},"geometry":{"type":"Point","coordinates":[-2.995271365,52.08205167]}},{"@id":"https://w3id.org/100_Sites/08418e02-533e-4e57-b3ba-49561ee9a1c5","type":"Feature","properties":{"title":"Ashby de la Zoucg Castle","organisation":"English Heritage","url":"https://www.english-heritage.org.uk/visit/places/ashby-de-la-zouch-castle/","description":"Castle","region":"East Midlands","period":"Medieval"},"geometry":{"type":"Point","coordinates":[-1.466656028,52.74582598]}},{"@id":"https://w3id.org/100_Sites/28c84f42-73da-41a2-be50-9d26e5799305","type":"Feature","properties":{"title":"Auckland Castle Deer House","organisation":"English Heritage","url":"https://www.english-heritage.org.uk/visit/places/Auckland-Castle-Deer-House","description":"Structure","region":"North East","period":"Post medieval"},"geometry":{"type":"Point","coordinates":[-1.666616339,54.66822012]}},{"@id":"https://w3id.org/100_Sites/ae55386d-6119-41c4-a8c6-a4ccbe9a8f31","type":"Feature","properties":{"title":"Audley End House and Gardens","organisation":"English Heritage","url":"https://www.english-heritage.org.uk/visit/places/Audley-End-House-and-Gardens","description":"House","region":"East","period":"Post medieval"},"geometry":{"type":"Point","coordinates":[0.221962155,52.02126704]}},{"@id":"https://w3id.org/100_Sites/ab83770e-ccdf-4176-a844-cd0976035646","type":"Feature","properties":{"title":"Avebury Henge and Stone Circles","organisation":"English Heritage","url":"https://www.english-heritage.org.uk/visit/places/avebury/","description":"Structure","region":"South West","period":"Prehistoric"},"geometry":{"type":"Point","coordinates":[-1.854674509,51.4289181]}},{"@id":"https://w3id.org/100_Sites/deb73086-c1d8-4e5d-b692-3e1b6a9ae5a7","type":"Feature","properties":{"title":"Aydon Castle","organisation":"English Heritage","url":"https://www.english-heritage.org.uk/visit/places/Aydon-Castle","description":"Castle","region":"North East","period":"Medieval"},"geometry":{"type":"Point","coordinates":[-1.999969614,54.99129012]}},{"@id":"https://w3id.org/100_Sites/b7937d4e-6e7d-4e56-9cdd-53f4b574bb5d","type":"Feature","properties":{"title":"Baconsthorpe Castle","organisation":"English Heritage","url":"https://www.english-heritage.org.uk/visit/places/Baconsthorpe-Castle","description":"House","region":"East","period":"Medieval"},"geometry":{"type":"Point","coordinates":[1.154514889,52.89937405]}},{"@id":"https://w3id.org/100_Sites/d207763d-1e2e-4f75-bcd5-dd4527e039f4","type":"Feature","properties":{"title":"Ballowall Barrow","organisation":"English Heritage","url":"https://www.english-heritage.org.uk/visit/places/Ballowall-Barrow","description":"Structure","region":"South West","period":"Prehistoric"},"geometry":{"type":"Point","coordinates":[-5.705552075,50.12180578]}},{"@id":"https://w3id.org/100_Sites/b822ad89-14b8-4950-b5a9-9d3923d0965a","type":"Feature","properties":{"title":"Banks East Turret","organisation":"English Heritage","url":"https://www.english-heritage.org.uk/visit/places/banks-east-turret-hadrians-wall/","description":"Structure","region":"Hadrian's Wall","period":"Roman"},"geometry":{"type":"Point","coordinates":[-2.665518872,54.97509027]}},{"@id":"https://w3id.org/100_Sites/4f3dc6e1-123d-47ad-9243-9185e550e2dd","type":"Feature","properties":{"title":"Bant's Carn Burial and Halangy down Ancient Village","organisation":"English Heritage","url":"https://www.english-heritage.org.uk/visit/places/bants-carn-burial-chamber-and-halangy-down-ancient-village/","description":"Structure","region":"South West","period":"Prehistoric"},"geometry":{"type":"Point","coordinates":[-6.313346535,49.93081871]}},{"@id":"https://w3id.org/100_Sites/bee1a0b0-5be9-4d94-b881-3a20bcefc1b6","type":"Feature","properties":{"title":"Barnard Castle","organisation":"English Heritage","url":"https://www.english-heritage.org.uk/visit/places/Barnard-Castle","description":"Castle","region":"North East","period":"Medieval"},"geometry":{"type":"Point","coordinates":[-1.925771915,54.54373972]}},{"@id":"https://w3id.org/100_Sites/a3a5b745-7ba7-4bb6-aa07-daa3855a32c0","type":"Feature","properties":{"title":"Dartmouth, Bayard's Cove Fort","organisation":"English Heritage","url":"https://www.english-heritage.org.uk/visit/places/bayards-cove-fort/","description":"Castle","region":"South West","period":"Post medieval"},"geometry":{"type":"Point","coordinates":[-3.577195141,50.3473176]}},{"@id":"https://w3id.org/100_Sites/726f422e-20f1-4e18-bce9-5c4b290443e3","type":"Feature","properties":{"title":"Bayham Old Abbey","organisation":"English Heritage","url":"https://www.english-heritage.org.uk/visit/places/Bayham-Old-Abbey","description":"Abbey","region":"South East","period":"Medieval"},"geometry":{"type":"Point","coordinates":[0.356418589,51.10406034]}},{"@id":"https://w3id.org/100_Sites/9738e9de-35ee-43f6-a8c2-93fc38b6ea00","type":"Feature","properties":{"title":"Beeston Castle and Woodland Park","organisation":"English Heritage","url":"https://www.english-heritage.org.uk/visit/places/Beeston-Castle-and-Woodland-Park","description":"Castle","region":"North West","period":"Medieval/Post medieval"},"geometry":{"type":"Point","coordinates":[-2.693434436,53.12884454]}},{"@id":"https://w3id.org/100_Sites/97c5cef2-8b52-478d-8fb5-06dfea10803c","type":"Feature","properties":{"title":"Belas Knap Long Barrow","organisation":"English Heritage","url":"https://www.english-heritage.org.uk/visit/places/Belas-Knap-Long-Barrow","description":"Structure","region":"South West","period":"Prehistoric"},"geometry":{"type":"Point","coordinates":[-1.970868456,51.92711616]}},{"@id":"https://w3id.org/100_Sites/6f22664d-16ad-4738-8f6f-93ec13e3904a","type":"Feature","properties":{"title":"Belsay Hall, Castle and Gardens","organisation":"English Heritage","url":"https://www.english-heritage.org.uk/visit/places/Belsay-Hall-Castle-and-Gardens","description":"House","region":"North East","period":"Post medieval"},"geometry":{"type":"Point","coordinates":[-1.866761811,55.10084783]}},{"@id":"https://w3id.org/100_Sites/effec5ed-e691-4d95-a1d2-1ca987c1747f","type":"Feature","properties":{"title":"Benwell Roman Temple","organisation":"English Heritage","url":"https://www.english-heritage.org.uk/visit/places/benwell-roman-temple-hadrians-wall/","description":"Structure","region":"Hadrian's Wall","period":"Roman"},"geometry":{"type":"Point","coordinates":[-1.662507382,54.97644477]}},{"@id":"https://w3id.org/100_Sites/2b927fcc-dc31-4d19-b343-6a84a6c90feb","type":"Feature","properties":{"title":"Berkhamstead Castle","organisation":"English Heritage","url":"https://www.english-heritage.org.uk/visit/places/berkhamsted-castle/","description":"Castle","region":"East","period":"Medieval"},"geometry":{"type":"Point","coordinates":[-0.55938738,51.76365436]}},{"@id":"https://w3id.org/100_Sites/32bd4a01-a34c-411a-bdde-bde07ec3407e","type":"Feature","properties":{"title":"Berney Arms Windmill","organisation":"English Heritage","url":"https://www.english-heritage.org.uk/visit/places/Berney-Arms-Windmill","description":"Structure","region":"East","period":"Post medieval"},"geometry":{"type":"Point","coordinates":[1.641239618,52.58597345]}},{"@id":"https://w3id.org/100_Sites/6b2b18e7-2580-4262-8232-2b33ced7e2d2","type":"Feature","properties":{"title":"Berry Pomeroy Castle","organisation":"English Heritage","url":"https://www.english-heritage.org.uk/visit/places/Berry-Pomeroy-Castle","description":"Castle","region":"South West","period":"Medieval/Post medieval"},"geometry":{"type":"Point","coordinates":[-3.636952461,50.4490221]}},{"@id":"https://w3id.org/100_Sites/b3a53398-30b5-4ee9-ac3d-aa4bc9634dbc","type":"Feature","properties":{"title":"Berwick Upon Tweed Barracks","organisation":"English Heritage","url":"https://www.english-heritage.org.uk/visit/places/berwick-upon-tweed-barracks-and-main-guard/","description":"Structure","region":"North East","period":"Post medieval"},"geometry":{"type":"Point","coordinates":[-1.999974197,55.77123953]}},{"@id":"https://w3id.org/100_Sites/b65e068e-87d9-4447-9c26-cb2db54e78bf","type":"Feature","properties":{"title":"Berwick Upon Tween Main Guard","organisation":"English Heritage","url":"https://www.english-heritage.org.uk/visit/places/berwick-upon-tweed-barracks-and-main-guard/","description":"Structure","region":"North East","period":"Post medieval"},"geometry":{"type":"Point","coordinates":[-2.001567886,55.7658485]}},{"@id":"https://w3id.org/100_Sites/6e6c2e6c-722b-4864-b11d-492a64352cb3","type":"Feature","properties":{"title":"Berwick Upon Tweed Castle","organisation":"English Heritage","url":"https://www.english-heritage.org.uk/visit/places/berwick-upon-tweed-castle-and-ramparts/","description":"Castle","region":"North East","period":"Medieval/Post-medieval"},"geometry":{"type":"Point","coordinates":[-2.012726621,55.77393435]}},{"@id":"https://w3id.org/100_Sites/10114cae-207f-40c2-b450-630edfbbfcb6","type":"Feature","properties":{"title":"Berwick Upon Tween Ramparts","organisation":"English Heritage","url":"https://www.english-heritage.org.uk/visit/places/berwick-upon-tweed-castle-and-ramparts/","description":"Castle","region":"North East","period":"Post medieval"},"geometry":{"type":"Point","coordinates":[-1.996786383,55.77034099]}},{"@id":"https://w3id.org/100_Sites/2f4251bf-9dcd-4d33-a66b-da66aa07677b","type":"Feature","properties":{"title":"Binham Market Cross","organisation":"English Heritage","url":"https://www.english-heritage.org.uk/visit/places/Binham-Market-Cross","description":"Structure","region":"East","period":"Medieval"},"geometry":{"type":"Point","coordinates":[0.951535663,52.91716895]}},{"@id":"https://w3id.org/100_Sites/a1aab408-4c0e-40d0-9583-b2a5f50f94ab","type":"Feature","properties":{"title":"Binham Priory","organisation":"English Heritage","url":"https://www.english-heritage.org.uk/visit/places/Binham-Priory","description":"Priory","region":"East","period":"Medieval"},"geometry":{"type":"Point","coordinates":[0.948742499,52.91993592]}},{"@id":"https://w3id.org/100_Sites/39acf999-eae7-4cb5-8e1f-c3539aba907f","type":"Feature","properties":{"title":"Birdoswald Roman Fort","organisation":"English Heritage","url":"https://www.english-heritage.org.uk/visit/places/birdoswald-roman-fort-hadrians-wall/","description":"Structure/Fort","region":"Hadrian's Wall","period":"Roman"},"geometry":{"type":"Point","coordinates":[-2.603241789,54.98979334]}},{"@id":"https://w3id.org/100_Sites/f96305d0-7cc2-4e61-bf5f-99ea302fbe89","type":"Feature","properties":{"title":"Bishops Waltham Palace","organisation":"English Heritage","url":"https://www.english-heritage.org.uk/visit/places/Bishops-Waltham-Palace","description":"Palace","region":"South East","period":"Medieval"},"geometry":{"type":"Point","coordinates":[-1.215474886,50.9533991]}},{"@id":"https://w3id.org/100_Sites/c306d7bb-c452-4a60-804c-278f343455a7","type":"Feature","properties":{"title":"Black Carts Turret","organisation":"English Heritage","url":"https://www.english-heritage.org.uk/visit/places/black-carts-turret-hadrians-wall/","description":"Structure","region":"Hadrian's Wall","period":"Roman"},"geometry":{"type":"Point","coordinates":[-2.181947233,55.03592]}},{"@id":"https://w3id.org/100_Sites/7c26bd27-bc01-496a-9154-bbf8e802622f","type":"Feature","properties":{"title":"Black Middens Bastle House","organisation":"English Heritage","url":"https://www.english-heritage.org.uk/visit/places/Black-Middens-Bastle-House","description":"Structure","region":"North East","period":"Post medieval"},"geometry":{"type":"Point","coordinates":[-2.358207439,55.20373197]}},{"@id":"https://w3id.org/100_Sites/e2ca53c5-383a-40a7-9282-7e271d6a0358","type":"Feature","properties":{"title":"Blackbury Camp","organisation":"English Heritage","url":"https://www.english-heritage.org.uk/visit/places/Blackbury-Camp","description":"Structure","region":"South West","period":"Prehistoric"},"geometry":{"type":"Point","coordinates":[-3.153301294,50.72551471]}},{"@id":"https://w3id.org/100_Sites/4989753a-7203-4856-a34d-db20147b6d9e","type":"Feature","properties":{"title":"Gloucester Blackfriars","organisation":"English Heritage","url":"https://www.english-heritage.org.uk/visit/places/blackfriars/","description":"Friary","region":"South West","period":"Medieval"},"geometry":{"type":"Point","coordinates":[-2.249734716,51.86391813]}},{"@id":"https://w3id.org/100_Sites/6c13133c-6b1e-4c8b-a885-325e78211232","type":"Feature","properties":{"title":"Blakeney Guildhall","organisation":"English Heritage","url":"https://www.english-heritage.org.uk/visit/places/Blakeney-Guildhall","description":"House","region":"East","period":"Medieval"},"geometry":{"type":"Point","coordinates":[1.019838921,52.95592311]}},{"@id":"https://w3id.org/100_Sites/7e7dba9d-34de-4d19-ac1a-c4d2c147ad86","type":"Feature","properties":{"title":"Bolingbroke Castle","organisation":"English Heritage","url":"https://www.english-heritage.org.uk/visit/places/Bolingbroke-Castle","description":"Castle","region":"East Midlands","period":"Medieval/Post medieval"},"geometry":{"type":"Point","coordinates":[0.017078175,53.16503776]}},{"@id":"https://w3id.org/100_Sites/92d4f0ef-a794-4299-b61b-98dccd43628d","type":"Feature","properties":{"title":"Bolsover Castle","organisation":"English Heritage","url":"https://www.english-heritage.org.uk/visit/places/Bolsover-Castle","description":"Castle","region":"East Midlands","period":"Post medieval"},"geometry":{"type":"Point","coordinates":[-1.297339238,53.23126906]}},{"@id":"https://w3id.org/100_Sites/c841a59d-b6e0-4525-be24-30db93eacef5","type":"Feature","properties":{"title":"Bolsover Cundy House","organisation":"English Heritage","url":"https://www.english-heritage.org.uk/visit/places/Bolsover-Cundy-House","description":"Structure (conduit house)","region":"East Midlands","period":"Post medieval"},"geometry":{"type":"Point","coordinates":[-1.295811629,53.23305785]}},{"@id":"https://w3id.org/100_Sites/906eca1e-9c90-4bf1-b54b-3e1570810b71","type":"Feature","properties":{"title":"Boscobel House and the Royal Oak","organisation":"English Heritage","url":"https://www.english-heritage.org.uk/visit/places/Boscobel-House-and-the-Royal-Oak","description":"House","region":"West Midlands","period":"Post medieval"},"geometry":{"type":"Point","coordinates":[-2.241007836,52.67126553]}},{"@id":"https://w3id.org/100_Sites/16e1c2bf-5de0-4e25-b55d-3a9dc4019224","type":"Feature","properties":{"title":"Bow Bridge","organisation":"English Heritage","url":"https://www.english-heritage.org.uk/visit/places/Bow-Bridge","description":"Structure (bridge)","region":"North West","period":"Medieval"},"geometry":{"type":"Point","coordinates":[-3.189261173,54.13346592]}},{"@id":"https://w3id.org/100_Sites/b8ca35eb-ab7b-4da2-a2d9-fa234e0eda1d","type":"Feature","properties":{"title":"Bowes Castle","organisation":"English Heritage","url":"https://www.english-heritage.org.uk/visit/places/Bowes-Castle","description":"Castle","region":"North East","period":"Medieval"},"geometry":{"type":"Point","coordinates":[-2.013869353,54.51680095]}},{"@id":"https://w3id.org/100_Sites/af4b3db2-883d-45d8-a787-484bc71a7910","type":"Feature","properties":{"title":"Boxgrover Priory","organisation":"English Heritage","url":"https://www.english-heritage.org.uk/visit/places/boxgrove-priory/","description":"Priory","region":"South East","period":"Medieval"},"geometry":{"type":"Point","coordinates":[-0.711070109,50.86079418]}},{"@id":"https://w3id.org/100_Sites/e32ec425-cc5b-4c83-91e4-24516fa708fe","type":"Feature","properties":{"title":"Bradford on Avon Tithe Barn","organisation":"English Heritage","url":"https://www.english-heritage.org.uk/visit/places/Bradford-on-Avon-Tithe-Barn","description":"Structure","region":"South West","period":"Medieval"},"geometry":{"type":"Point","coordinates":[-2.255501271,51.34240891]}},{"@id":"https://w3id.org/100_Sites/c3d9e782-cc90-4db6-9008-8ec8f2370cfa","type":"Feature","properties":{"title":"Bramber Castle","organisation":"English Heritage","url":"https://www.english-heritage.org.uk/visit/places/Bramber-Castle","description":"Castle","region":"South East","period":"Medieval"},"geometry":{"type":"Point","coordinates":[-0.316449015,50.88365141]}},{"@id":"https://w3id.org/100_Sites/e250e511-c1e2-4ac5-a56e-ae36ed8edc50","type":"Feature","properties":{"title":"Bratton Camp and White Horse","organisation":"English Heritage","url":"https://www.english-heritage.org.uk/visit/places/Bratton-Camp-and-White-Horse","description":"Structure","region":"South West","period":"Prehistoric/Post medieval"},"geometry":{"type":"Point","coordinates":[-2.144704645,51.2634708]}},{"@id":"https://w3id.org/100_Sites/6cff84b3-399a-422e-8d43-e9ecd7aeac13","type":"Feature","properties":{"title":"Brinkburn Priory","organisation":"English Heritage","url":"https://www.english-heritage.org.uk/visit/places/Brinkburn-Priory","description":"Priory","region":"North East","period":"Medieval"},"geometry":{"type":"Point","coordinates":[-1.818943156,55.2787069]}},{"@id":"https://w3id.org/100_Sites/5d1164e8-f245-4955-aae8-531342954575","type":"Feature","properties":{"title":"Brodsworth Hall and Gardens","organisation":"English Heritage","url":"https://www.english-heritage.org.uk/visit/places/Brodsworth-Hall-and-Gardens","description":"House","region":"Yorkshire & the Humber","period":"Post medieval"},"geometry":{"type":"Point","coordinates":[-1.237599793,53.55719535]}},{"@id":"https://w3id.org/100_Sites/3820bcf0-c57d-4892-b897-e3f28f3f295b","type":"Feature","properties":{"title":"Brough Castle","organisation":"English Heritage","url":"https://www.english-heritage.org.uk/visit/places/Brough-Castle","description":"Castle","region":"North West","period":"Medieval"},"geometry":{"type":"Point","coordinates":[-2.324399531,54.52175817]}},{"@id":"https://w3id.org/100_Sites/a6569853-3f31-4450-945e-2aeb5a215a90","type":"Feature","properties":{"title":"Brougham Castle","organisation":"English Heritage","url":"https://www.english-heritage.org.uk/visit/places/Brougham-Castle","description":"Castle","region":"North West","period":"Medieval"},"geometry":{"type":"Point","coordinates":[-2.719163038,54.65396074]}},{"@id":"https://w3id.org/100_Sites/e1f6b950-43b9-4f43-8ed6-2642f97be4f6","type":"Feature","properties":{"title":"Brunton Turret","organisation":"English Heritage","url":"https://www.english-heritage.org.uk/visit/places/brunton-turret-hadrians-wall/","description":"Structure","region":"Hadrian's Wall","period":"Roman"},"geometry":{"type":"Point","coordinates":[-2.123534225,55.02267867]}},{"@id":"https://w3id.org/100_Sites/0e16ab0b-6e14-4a29-bf3a-15e2c02b69f5","type":"Feature","properties":{"title":"Buildwas Abbey","organisation":"English Heritage","url":"https://www.english-heritage.org.uk/visit/places/Buildwas-Abbey","description":"Abbey","region":"West Midlands","period":"Medieval"},"geometry":{"type":"Point","coordinates":[-2.528957328,52.6352695]}},{"@id":"https://w3id.org/100_Sites/65c51ce9-5117-4bd8-b613-8821fd73996c","type":"Feature","properties":{"title":"Burgh Castle","organisation":"English Heritage","url":"https://www.english-heritage.org.uk/visit/places/Burgh-Castle","description":"Fort","region":"East","period":"Roman"},"geometry":{"type":"Point","coordinates":[1.655865655,52.58372526]}},{"@id":"https://w3id.org/100_Sites/e6fc785e-a2ae-4d70-8fbd-c607fc99736d","type":"Feature","properties":{"title":"Burton Agnes Manor House","organisation":"English Heritage","url":"https://www.english-heritage.org.uk/visit/places/Burton-Agnes-Manor-House","description":"Structure","region":"Yorkshire & the Humber","period":"Medieval"},"geometry":{"type":"Point","coordinates":[-0.317773433,54.0529896]}},{"@id":"https://w3id.org/100_Sites/a9ad3b95-6098-406a-ab0c-a9c0942ed99d","type":"Feature","properties":{"title":"Bury St Edmunds Abbey","organisation":"English Heritage","url":"https://www.english-heritage.org.uk/visit/places/Bury-St-Edmunds-Abbey","description":"Abbey","region":"East","period":"Medieval"},"geometry":{"type":"Point","coordinates":[0.720185614,52.24464972]}},{"@id":"https://w3id.org/100_Sites/bded8c86-b379-40ac-a36d-20c51d32c142","type":"Feature","properties":{"title":"Bushmead Priory","organisation":"English Heritage","url":"https://www.english-heritage.org.uk/visit/places/Bushmead-Priory","description":"Priory","region":"East","period":"Medieval"},"geometry":{"type":"Point","coordinates":[-0.368406486,52.23321826]}},{"@id":"https://w3id.org/100_Sites/62abcd89-8e25-4eb2-b202-72e96fd45ad9","type":"Feature","properties":{"title":"Dunster, Butter Cross","organisation":"English Heritage","url":"https://www.english-heritage.org.uk/visit/places/butter-cross/","description":"Structure","region":"South West","period":"Medieval"},"geometry":{"type":"Point","coordinates":[-2.255501271,51.34240891]}},{"@id":"https://w3id.org/100_Sites/bf81f162-f9a3-4189-940b-c9c82a176225","type":"Feature","properties":{"title":"Byland Abbey","organisation":"English Heritage","url":"https://www.english-heritage.org.uk/visit/places/Byland-Abbey","description":"Abbey","region":"Yorkshire & the Humber","period":"Medieval"},"geometry":{"type":"Point","coordinates":[-1.159832751,54.20292082]}},{"@id":"https://w3id.org/100_Sites/45005d4b-17b2-4fd1-80f2-f11ffe3f43bc","type":"Feature","properties":{"title":"Caister Roman Fort","organisation":"English Heritage","url":"https://www.english-heritage.org.uk/visit/places/Caister-Roman-Fort","description":"Fort","region":"East","period":"Roman"},"geometry":{"type":"Point","coordinates":[1.723726655,52.6499774]}},{"@id":"https://w3id.org/100_Sites/dcf12567-e2a0-4a3d-a4ce-259217432324","type":"Feature","properties":{"title":"Calshot Castle","organisation":"English Heritage","url":"https://www.english-heritage.org.uk/visit/places/Calshot-Castle","description":"Castle","region":"South East","period":"Medieval"},"geometry":{"type":"Point","coordinates":[-1.307158952,50.81998975]}},{"@id":"https://w3id.org/100_Sites/8affd446-fd66-4d37-8026-166986f4dcc5","type":"Feature","properties":{"title":"Camber Castle","organisation":"English Heritage","url":"https://www.english-heritage.org.uk/visit/places/Camber-Castle","description":"Castle","region":"South East","period":"Post medieval"},"geometry":{"type":"Point","coordinates":[0.735521556,50.93391958]}},{"@id":"https://w3id.org/100_Sites/7a3ab28b-cee8-4f29-a751-a1d99183fba1","type":"Feature","properties":{"title":"Cantlop Bridge","organisation":"English Heritage","url":"https://www.english-heritage.org.uk/visit/places/Cantlop-Bridge","description":"Structure (bridge)","region":"West Midlands","period":"Post medieval"},"geometry":{"type":"Point","coordinates":[-2.715419832,52.65137086]}},{"@id":"https://w3id.org/100_Sites/053bfc26-0957-4e03-b7cf-4524509f5282","type":"Feature","properties":{"title":"Carisbrooke Castle","organisation":"English Heritage","url":"https://www.english-heritage.org.uk/visit/places/Carisbrooke-Castle","description":"Castle","region":"South East","period":"Medieval/Post medieval"},"geometry":{"type":"Point","coordinates":[-1.313354031,50.68783299]}},{"@id":"https://w3id.org/100_Sites/4512e433-b9c3-40da-a7e4-b7e04f3a0a28","type":"Feature","properties":{"title":"Carlisle Castle","organisation":"English Heritage","url":"https://www.english-heritage.org.uk/visit/places/Carlisle-Castle","description":"Castle","region":"North West","period":"Medieval"},"geometry":{"type":"Point","coordinates":[-2.943382806,54.89686559]}},{"@id":"https://w3id.org/100_Sites/b1ec5a0e-c6f9-4293-b094-d1682e4ebb50","type":"Feature","properties":{"title":"Carn Euny Ancient Village","organisation":"English Heritage","url":"https://www.english-heritage.org.uk/visit/places/Carn-Euny-Ancient-Village","description":"Structure","region":"South West","period":"Prehistoric"},"geometry":{"type":"Point","coordinates":[-5.638100683,50.10234052]}},{"@id":"https://w3id.org/100_Sites/9904a7ee-2db7-42e1-9b69-e05cbb049b4b","type":"Feature","properties":{"title":"Castle Acre Priory","organisation":"English Heritage","url":"https://www.english-heritage.org.uk/visit/places/castle-acre-castle-acre-priory/","description":"Priory","region":"East","period":"Medieval"},"geometry":{"type":"Point","coordinates":[0.68473859,52.70048088]}},{"@id":"https://w3id.org/100_Sites/a8dacb77-0cae-43d2-83ed-6227f71e88fe","type":"Feature","properties":{"title":"Castle Acre Castle and Bailey Gate","organisation":"English Heritage","url":"https://www.english-heritage.org.uk/visit/places/Castle-Acre-Castle-and-Bailey-Gate","description":"Castle","region":"East","period":"Medieval"},"geometry":{"type":"Point","coordinates":[0.692363672,52.70390517]}},{"@id":"https://w3id.org/100_Sites/95bfac36-ada4-49b3-9a5c-d52b331f4dc3","type":"Feature","properties":{"title":"Castle Rising Castle","organisation":"English Heritage","url":"https://www.english-heritage.org.uk/visit/places/Castle-Rising-Castle","description":"Castle","region":"East","period":"Medieval"},"geometry":{"type":"Point","coordinates":[0.470573608,52.79324906]}},{"@id":"https://w3id.org/100_Sites/59770ad1-b4ad-4eb1-b7b5-ac7c50a8332a","type":"Feature","properties":{"title":"Castlerigg Stone Circle","organisation":"English Heritage","url":"https://www.english-heritage.org.uk/visit/places/Castlerigg-Stone-Circle","description":"Structure","region":"North West","period":"Prehsitoric"},"geometry":{"type":"Point","coordinates":[-3.099148124,54.60257764]}},{"@id":"https://w3id.org/100_Sites/ed79ab95-ccb3-4ce0-965d-9a64d25ec52d","type":"Feature","properties":{"title":"Cawfields Milecastle","organisation":"English Heritage","url":"https://www.english-heritage.org.uk/visit/places/cawfields-roman-wall-hadrians-wall/","description":"Structure","region":"Hadrian's Wall","period":"Roman"},"geometry":{"type":"Point","coordinates":[-2.445430883,54.99406827]}}],"indexing":{"@type":"Dataset","name":"100 Sites","description":"","license":"https://creativecommons.org/licenses/by/4.0/","identifier":"https://w3id.org/100_Sites","temporalCoverage":"1066/2022","spatialCoverage":{"@type":"GeoShape","box":"0.580101 0.00149 60.355 9.78667","geo":{"@type":"GeoShape","box":"49.93081871 0.017078175 55.77393435 6.313346535"}}}}